[
    {
        "id": "5128df48-79fc-4f0f-8b52-d06be54d0cec",
        "name": "(405) Brewing Co",
        "brewery_type": "micro",
        "address_1": "1716 Topeka St",
        "address_2": null,
        "address_3": null,
        "city": "Norman",
        "state_province": "Oklahoma",
        "postal_code": "73069-8224",
        "country": "United States",
        "longitude": "-97.46818222",
        "latitude": "35.25738891",
        "phone": "4058160490",
        "website_url": "http://www.405brewing.com",
        "state": "Oklahoma",
        "street": "1716 Topeka St"
    },
    {
        "id": "9c5a66c8-cc13-416f-a5d9-0a769c87d318",
        "name": "(512) Brewing Co",
        "brewery_type": "micro",
        "address_1": "407 Radam Ln Ste F200",
        "address_2": null,
        "address_3": null,
        "city": "Austin",
        "state_province": "Texas",
        "postal_code": "78745-1197",
        "country": "United States",
        "longitude": null,
        "latitude": null,
        "phone": "5129211545",
        "website_url": "http://www.512brewing.com",
        "state": "Texas",
        "street": "407 Radam Ln Ste F200"
    },
    {
        "id": "4f4b5b34-d572-4dff-a18f-47e507c073e6",
        "name": "1912 Brewing",
        "brewery_type": "micro",
        "address_1": "2045 N Forbes Blvd Ste 105",
        "address_2": null,
        "address_3": null,
        "city": "Tucson",
        "state_province": "Arizona",
        "postal_code": "85745-1444",
        "country": "United States",
        "longitude": "-110.9927505",
        "latitude": "32.24673727",
        "phone": "5202564851",
        "website_url": "http://www.1912brewing.com",
        "state": "Arizona",
        "street": "2045 N Forbes Blvd Ste 105"
    }
]